[
  {
    "facility_id": "FAC_0000",
    "name": "Jasmine Hospital And Wow Clinic",
    "type": "hospital",
    "lat": 19.148671,
    "lon": 72.999819,
    "nearest_node": 9685181431,
    "baseline_dist_m": 0,
    "flood_dist_m": 0,
    "detour_factor": 1.0,
    "status": "FULLY_ACCESSIBLE"
  },
  {
    "facility_id": "FAC_0001",
    "name": "Dr Kasbekar Sterling Hospital",
    "type": "hospital",
    "lat": 19.069845,
    "lon": 72.987395,
    "nearest_node": 9685181431,
    "baseline_dist_m": 0,
    "flood_dist_m": 0,
    "detour_factor": 1.0,
    "status": "FULLY_ACCESSIBLE"
  },
  {
    "facility_id": "FAC_0002",
    "name": "Sai Snehdeep Hospital KK",
    "type": "hospital",
    "lat": 19.108502,
    "lon": 73.001795,
    "nearest_node": 9685181431,
    "baseline_dist_m": 0,
    "flood_dist_m": 0,
    "detour_factor": 1.0,
    "status": "FULLY_ACCESSIBLE"
  },
  {
    "facility_id": "FAC_0003",
    "name": "Army Medical Facility",
    "type": "hospital",
    "lat": 19.026076,
    "lon": 73.029474,
    "nearest_node": 9685181431,
    "baseline_dist_m": 0,
    "flood_dist_m": 0,
    "detour_factor": 1.0,
    "status": "FULLY_ACCESSIBLE"
  },
  {
    "facility_id": "FAC_0004",
    "name": "Doctor's Clinic",
    "type": "hospital",
    "lat": 19.006584,
    "lon": 73.015794,
    "nearest_node": 9685181431,
    "baseline_dist_m": 0,
    "flood_dist_m": 0,
    "detour_factor": 1.0,
    "status": "FULLY_ACCESSIBLE"
  },
  {
    "facility_id": "FAC_0005",
    "name": "Sai Seva Hospital and Icu, Mumbai",
    "type": "hospital",
    "lat": 19.155438,
    "lon": 72.997464,
    "nearest_node": 9685181431,
    "baseline_dist_m": 0,
    "flood_dist_m": 0,
    "detour_factor": 1.0,
    "status": "FULLY_ACCESSIBLE"
  },
  {
    "facility_id": "FAC_0006",
    "name": "Dr. R.N. Patil's Suraj Neurologiacal and Multispeciality Hospital",
    "type": "hospital",
    "lat": 19.062471,
    "lon": 73.006043,
    "nearest_node": 9685181431,
    "baseline_dist_m": 0,
    "flood_dist_m": 0,
    "detour_factor": 1.0,
    "status": "FULLY_ACCESSIBLE"
  },
  {
    "facility_id": "FAC_0007",
    "name": "Dr. Kunnure Hospital and Iccu",
    "type": "hospital",
    "lat": 19.081001,
    "lon": 72.998884,
    "nearest_node": 9685181431,
    "baseline_dist_m": 0,
    "flood_dist_m": 0,
    "detour_factor": 1.0,
    "status": "FULLY_ACCESSIBLE"
  },
  {
    "facility_id": "FAC_0008",
    "name": "Parulekar Hospital",
    "type": "hospital",
    "lat": 19.146748,
    "lon": 72.997462,
    "nearest_node": 9685181431,
    "baseline_dist_m": 0,
    "flood_dist_m": 0,
    "detour_factor": 1.0,
    "status": "FULLY_ACCESSIBLE"
  },
  {
    "facility_id": "FAC_0009",
    "name": "Disha Hospital",
    "type": "hospital",
    "lat": 19.151143,
    "lon": 72.997966,
    "nearest_node": 9685181431,
    "baseline_dist_m": 0,
    "flood_dist_m": 0,
    "detour_factor": 1.0,
    "status": "FULLY_ACCESSIBLE"
  },
  {
    "facility_id": "FAC_0010",
    "name": "Dr Manes Gawali Hospital",
    "type": "hospital",
    "lat": 19.142836,
    "lon": 73.001563,
    "nearest_node": 9685181431,
    "baseline_dist_m": 0,
    "flood_dist_m": 0,
    "detour_factor": 1.0,
    "status": "FULLY_ACCESSIBLE"
  },
  {
    "facility_id": "FAC_0011",
    "name": "Avadhoot Hospital and Iccu",
    "type": "hospital",
    "lat": 19.159769,
    "lon": 72.992598,
    "nearest_node": 9685181431,
    "baseline_dist_m": 0,
    "flood_dist_m": 0,
    "detour_factor": 1.0,
    "status": "FULLY_ACCESSIBLE"
  },
  {
    "facility_id": "FAC_0012",
    "name": "Uma Hospital",
    "type": "hospital",
    "lat": 19.082372,
    "lon": 72.999855,
    "nearest_node": 9685181431,
    "baseline_dist_m": 0,
    "flood_dist_m": 0,
    "detour_factor": 1.0,
    "status": "FULLY_ACCESSIBLE"
  },
  {
    "facility_id": "FAC_0013",
    "name": "Dr. Sonawane's Hospital",
    "type": "hospital",
    "lat": 19.021702,
    "lon": 73.024125,
    "nearest_node": 9685181431,
    "baseline_dist_m": 0,
    "flood_dist_m": 0,
    "detour_factor": 1.0,
    "status": "FULLY_ACCESSIBLE"
  },
  {
    "facility_id": "FAC_0014",
    "name": "Indravati Hospital",
    "type": "hospital",
    "lat": 19.156654,
    "lon": 72.997767,
    "nearest_node": 9685181431,
    "baseline_dist_m": 0,
    "flood_dist_m": 0,
    "detour_factor": 1.0,
    "status": "FULLY_ACCESSIBLE"
  },
  {
    "facility_id": "FAC_0015",
    "name": "Vedaant Multispeciality Hospital",
    "type": "hospital",
    "lat": 19.100608,
    "lon": 72.998699,
    "nearest_node": 9685181431,
    "baseline_dist_m": 0,
    "flood_dist_m": 0,
    "detour_factor": 1.0,
    "status": "FULLY_ACCESSIBLE"
  },
  {
    "facility_id": "FAC_0016",
    "name": "Surya Hospital and Iccu",
    "type": "hospital",
    "lat": 19.036093,
    "lon": 73.023166,
    "nearest_node": 9685181431,
    "baseline_dist_m": 0,
    "flood_dist_m": 0,
    "detour_factor": 1.0,
    "status": "FULLY_ACCESSIBLE"
  },
  {
    "facility_id": "FAC_0017",
    "name": "Aayush Multispeciality Hospital",
    "type": "hospital",
    "lat": 19.152502,
    "lon": 72.998523,
    "nearest_node": 9685181431,
    "baseline_dist_m": 0,
    "flood_dist_m": 0,
    "detour_factor": 1.0,
    "status": "FULLY_ACCESSIBLE"
  },
  {
    "facility_id": "FAC_0018",
    "name": "Aryan Hospital",
    "type": "hospital",
    "lat": 19.041052,
    "lon": 73.014902,
    "nearest_node": 9685181431,
    "baseline_dist_m": 0,
    "flood_dist_m": 0,
    "detour_factor": 1.0,
    "status": "FULLY_ACCESSIBLE"
  },
  {
    "facility_id": "FAC_0019",
    "name": "Shivam Eye Foundation P P N",
    "type": "hospital",
    "lat": 19.023828,
    "lon": 73.02197,
    "nearest_node": 9685181431,
    "baseline_dist_m": 0,
    "flood_dist_m": 0,
    "detour_factor": 1.0,
    "status": "FULLY_ACCESSIBLE"
  },
  {
    "facility_id": "FAC_0020",
    "name": "Suruchi Eye Centre",
    "type": "hospital",
    "lat": 19.151149,
    "lon": 72.997901,
    "nearest_node": 9685181431,
    "baseline_dist_m": 0,
    "flood_dist_m": 0,
    "detour_factor": 1.0,
    "status": "FULLY_ACCESSIBLE"
  },
  {
    "facility_id": "FAC_0021",
    "name": "Pkc Hospital",
    "type": "hospital",
    "lat": 19.08056,
    "lon": 73.003027,
    "nearest_node": 9685181431,
    "baseline_dist_m": 0,
    "flood_dist_m": 0,
    "detour_factor": 1.0,
    "status": "FULLY_ACCESSIBLE"
  },
  {
    "facility_id": "FAC_0022",
    "name": "Sushrusha Heart Care Center and Speciality Hospital",
    "type": "hospital",
    "lat": 19.043248,
    "lon": 73.009638,
    "nearest_node": 9685181431,
    "baseline_dist_m": 0,
    "flood_dist_m": 0,
    "detour_factor": 1.0,
    "status": "FULLY_ACCESSIBLE"
  },
  {
    "facility_id": "FAC_0023",
    "name": "Sanjivani Hospital and Iccu",
    "type": "hospital",
    "lat": 19.040954,
    "lon": 73.014555,
    "nearest_node": 9685181431,
    "baseline_dist_m": 0,
    "flood_dist_m": 0,
    "detour_factor": 1.0,
    "status": "FULLY_ACCESSIBLE"
  },
  {
    "facility_id": "FAC_0024",
    "name": "Gandhi Hospital - Navi Mumbai",
    "type": "hospital",
    "lat": 19.151101,
    "lon": 72.999536,
    "nearest_node": 9685181431,
    "baseline_dist_m": 0,
    "flood_dist_m": 0,
    "detour_factor": 1.0,
    "status": "FULLY_ACCESSIBLE"
  },
  {
    "facility_id": "FAC_0025",
    "name": "Vidhi Eye and Skin Care Centre",
    "type": "hospital",
    "lat": 19.099475,
    "lon": 73.005757,
    "nearest_node": 9685181431,
    "baseline_dist_m": 0,
    "flood_dist_m": 0,
    "detour_factor": 1.0,
    "status": "FULLY_ACCESSIBLE"
  },
  {
    "facility_id": "FAC_0026",
    "name": "Kamlesh Mother and Child Hospital",
    "type": "hospital",
    "lat": 19.043415,
    "lon": 73.015534,
    "nearest_node": 9685181431,
    "baseline_dist_m": 0,
    "flood_dist_m": 0,
    "detour_factor": 1.0,
    "status": "FULLY_ACCESSIBLE"
  },
  {
    "facility_id": "FAC_0027",
    "name": "Thanawala Maternity Home",
    "type": "hospital",
    "lat": 19.073949,
    "lon": 72.999306,
    "nearest_node": 9685181431,
    "baseline_dist_m": 0,
    "flood_dist_m": 0,
    "detour_factor": 1.0,
    "status": "FULLY_ACCESSIBLE"
  },
  {
    "facility_id": "FAC_0028",
    "name": "Suyash Hospital",
    "type": "hospital",
    "lat": 19.011737,
    "lon": 73.032378,
    "nearest_node": 9685181431,
    "baseline_dist_m": 0,
    "flood_dist_m": 0,
    "detour_factor": 1.0,
    "status": "FULLY_ACCESSIBLE"
  },
  {
    "facility_id": "FAC_0029",
    "name": "Saraswati Skin and Eye Care Centre",
    "type": "hospital",
    "lat": 19.098082,
    "lon": 73.005607,
    "nearest_node": 9685181431,
    "baseline_dist_m": 0,
    "flood_dist_m": 0,
    "detour_factor": 1.0,
    "status": "FULLY_ACCESSIBLE"
  },
  {
    "facility_id": "FAC_0030",
    "name": "Om Gagangiri Hospital, Thane, NAVI MUMBAI",
    "type": "hospital",
    "lat": 19.102421,
    "lon": 73.003759,
    "nearest_node": 9685181431,
    "baseline_dist_m": 0,
    "flood_dist_m": 0,
    "detour_factor": 1.0,
    "status": "FULLY_ACCESSIBLE"
  },
  {
    "facility_id": "FAC_0031",
    "name": "Thanawalas Maternity Home & IVF Clinic",
    "type": "hospital",
    "lat": 19.073782,
    "lon": 72.999709,
    "nearest_node": 9685181431,
    "baseline_dist_m": 0,
    "flood_dist_m": 0,
    "detour_factor": 1.0,
    "status": "FULLY_ACCESSIBLE"
  },
  {
    "facility_id": "FAC_0032",
    "name": "Asha Hospital and Iccu",
    "type": "hospital",
    "lat": 19.150371,
    "lon": 72.999947,
    "nearest_node": 9685181431,
    "baseline_dist_m": 0,
    "flood_dist_m": 0,
    "detour_factor": 1.0,
    "status": "FULLY_ACCESSIBLE"
  },
  {
    "facility_id": "FAC_0033",
    "name": "Dr Yewale Multispeciality Hospital For Children",
    "type": "hospital",
    "lat": 19.081709,
    "lon": 72.996607,
    "nearest_node": 9685181431,
    "baseline_dist_m": 0,
    "flood_dist_m": 0,
    "detour_factor": 1.0,
    "status": "FULLY_ACCESSIBLE"
  },
  {
    "facility_id": "FAC_0034",
    "name": "Harish Hospital and Iccu",
    "type": "hospital",
    "lat": 19.043406,
    "lon": 73.02046,
    "nearest_node": 9685181431,
    "baseline_dist_m": 0,
    "flood_dist_m": 0,
    "detour_factor": 1.0,
    "status": "FULLY_ACCESSIBLE"
  },
  {
    "facility_id": "FAC_0035",
    "name": "Dr. Doke's Shraddha Hospital",
    "type": "hospital",
    "lat": 19.149046,
    "lon": 72.999828,
    "nearest_node": 9685181431,
    "baseline_dist_m": 0,
    "flood_dist_m": 0,
    "detour_factor": 1.0,
    "status": "FULLY_ACCESSIBLE"
  },
  {
    "facility_id": "FAC_0036",
    "name": "Sanpada General Hopital",
    "type": "hospital",
    "lat": 19.063412,
    "lon": 73.012456,
    "nearest_node": 9685181431,
    "baseline_dist_m": 0,
    "flood_dist_m": 0,
    "detour_factor": 1.0,
    "status": "FULLY_ACCESSIBLE"
  },
  {
    "facility_id": "FAC_0037",
    "name": "Mody Hospital Iccu",
    "type": "hospital",
    "lat": 19.161103,
    "lon": 72.998814,
    "nearest_node": 9685181431,
    "baseline_dist_m": 0,
    "flood_dist_m": 0,
    "detour_factor": 1.0,
    "status": "FULLY_ACCESSIBLE"
  },
  {
    "facility_id": "FAC_0038",
    "name": "Manak Healthcare Hospital",
    "type": "hospital",
    "lat": 19.043283,
    "lon": 73.017892,
    "nearest_node": 9685181431,
    "baseline_dist_m": 0,
    "flood_dist_m": 0,
    "detour_factor": 1.0,
    "status": "FULLY_ACCESSIBLE"
  },
  {
    "facility_id": "FAC_0039",
    "name": "Raj Hospital, Mumbai",
    "type": "hospital",
    "lat": 19.034161,
    "lon": 73.019343,
    "nearest_node": 9685181431,
    "baseline_dist_m": 0,
    "flood_dist_m": 0,
    "detour_factor": 1.0,
    "status": "FULLY_ACCESSIBLE"
  },
  {
    "facility_id": "FAC_0040",
    "name": "National Burns Center",
    "type": "hospital",
    "lat": 19.1533,
    "lon": 72.986229,
    "nearest_node": 9685181431,
    "baseline_dist_m": 0,
    "flood_dist_m": 0,
    "detour_factor": 1.0,
    "status": "FULLY_ACCESSIBLE"
  },
  {
    "facility_id": "FAC_0041",
    "name": "Divine Multispecialty Hospital and Research Centre",
    "type": "hospital",
    "lat": 19.120693,
    "lon": 73.002869,
    "nearest_node": 9685181431,
    "baseline_dist_m": 0,
    "flood_dist_m": 0,
    "detour_factor": 1.0,
    "status": "FULLY_ACCESSIBLE"
  },
  {
    "facility_id": "FAC_0042",
    "name": "Ashirwad Hospital Maternity Surgical and General",
    "type": "hospital",
    "lat": 19.089799,
    "lon": 73.004712,
    "nearest_node": 9685181431,
    "baseline_dist_m": 0,
    "flood_dist_m": 0,
    "detour_factor": 1.0,
    "status": "FULLY_ACCESSIBLE"
  },
  {
    "facility_id": "FAC_0043",
    "name": "Aakashdeep Hospital and I.C.U",
    "type": "hospital",
    "lat": 19.101379,
    "lon": 73.004627,
    "nearest_node": 9685181431,
    "baseline_dist_m": 0,
    "flood_dist_m": 0,
    "detour_factor": 1.0,
    "status": "FULLY_ACCESSIBLE"
  },
  {
    "facility_id": "FAC_0044",
    "name": "Chaitanya Child Care Centre",
    "type": "hospital",
    "lat": 19.042003,
    "lon": 73.016934,
    "nearest_node": 9685181431,
    "baseline_dist_m": 0,
    "flood_dist_m": 0,
    "detour_factor": 1.0,
    "status": "FULLY_ACCESSIBLE"
  },
  {
    "facility_id": "FAC_0045",
    "name": "KRYPTON Heritage Health Care",
    "type": "hospital",
    "lat": 19.147598,
    "lon": 72.997356,
    "nearest_node": 9685181431,
    "baseline_dist_m": 0,
    "flood_dist_m": 0,
    "detour_factor": 1.0,
    "status": "FULLY_ACCESSIBLE"
  },
  {
    "facility_id": "FAC_0046",
    "name": "Navjeevan Hospital",
    "type": "hospital",
    "lat": 19.070562,
    "lon": 72.998676,
    "nearest_node": 9685181431,
    "baseline_dist_m": 0,
    "flood_dist_m": 0,
    "detour_factor": 1.0,
    "status": "FULLY_ACCESSIBLE"
  },
  {
    "facility_id": "FAC_0047",
    "name": "Dr. Tilwe Maternity and Nursing Home",
    "type": "hospital",
    "lat": 19.071974,
    "lon": 72.999923,
    "nearest_node": 9685181431,
    "baseline_dist_m": 0,
    "flood_dist_m": 0,
    "detour_factor": 1.0,
    "status": "FULLY_ACCESSIBLE"
  },
  {
    "facility_id": "FAC_0048",
    "name": "Satyam Multispeciality Hospital and Trauma Centre",
    "type": "hospital",
    "lat": 19.099044,
    "lon": 73.004644,
    "nearest_node": 9685181431,
    "baseline_dist_m": 0,
    "flood_dist_m": 0,
    "detour_factor": 1.0,
    "status": "FULLY_ACCESSIBLE"
  },
  {
    "facility_id": "FAC_0049",
    "name": "Sanjivni Hospital, Thane",
    "type": "hospital",
    "lat": 19.157409,
    "lon": 72.99849,
    "nearest_node": 9685181431,
    "baseline_dist_m": 0,
    "flood_dist_m": 0,
    "detour_factor": 1.0,
    "status": "FULLY_ACCESSIBLE"
  },
  {
    "facility_id": "FAC_0050",
    "name": "Mohanlal Jivandas Hospital managed by Krishnai Hospital",
    "type": "hospital",
    "lat": 19.08141,
    "lon": 73.000558,
    "nearest_node": 9685181431,
    "baseline_dist_m": 0,
    "flood_dist_m": 0,
    "detour_factor": 1.0,
    "status": "FULLY_ACCESSIBLE"
  },
  {
    "facility_id": "FAC_0051",
    "name": "Dr. Parikhs Nursing Home and Iccu - Vashi",
    "type": "hospital",
    "lat": 19.073858,
    "lon": 72.999304,
    "nearest_node": 9685181431,
    "baseline_dist_m": 0,
    "flood_dist_m": 0,
    "detour_factor": 1.0,
    "status": "FULLY_ACCESSIBLE"
  },
  {
    "facility_id": "FAC_0052",
    "name": "Dr. Jairaj's Hospital",
    "type": "hospital",
    "lat": 19.025382,
    "lon": 73.042152,
    "nearest_node": 9685181431,
    "baseline_dist_m": 0,
    "flood_dist_m": 0,
    "detour_factor": 1.0,
    "status": "FULLY_ACCESSIBLE"
  },
  {
    "facility_id": "FAC_0053",
    "name": "Rajpal Hospital and I.C.U.",
    "type": "hospital",
    "lat": 19.099566,
    "lon": 73.006162,
    "nearest_node": 9685181431,
    "baseline_dist_m": 0,
    "flood_dist_m": 0,
    "detour_factor": 1.0,
    "status": "FULLY_ACCESSIBLE"
  },
  {
    "facility_id": "FAC_0054",
    "name": "Global 5 Health Care Centre",
    "type": "hospital",
    "lat": 19.07977,
    "lon": 72.99815,
    "nearest_node": 9685181431,
    "baseline_dist_m": 0,
    "flood_dist_m": 0,
    "detour_factor": 1.0,
    "status": "FULLY_ACCESSIBLE"
  },
  {
    "facility_id": "FAC_0055",
    "name": "Patoriya Eye Hospital",
    "type": "hospital",
    "lat": 19.025079,
    "lon": 73.021123,
    "nearest_node": 9685181431,
    "baseline_dist_m": 0,
    "flood_dist_m": 0,
    "detour_factor": 1.0,
    "status": "FULLY_ACCESSIBLE"
  },
  {
    "facility_id": "FAC_0056",
    "name": "Lotus Multispeciality Hospital and Icu",
    "type": "hospital",
    "lat": 19.078782,
    "lon": 73.001412,
    "nearest_node": 9685181431,
    "baseline_dist_m": 0,
    "flood_dist_m": 0,
    "detour_factor": 1.0,
    "status": "FULLY_ACCESSIBLE"
  },
  {
    "facility_id": "FAC_0057",
    "name": "Criti Care Iccu, Multispeciality and Trauma Centre",
    "type": "hospital",
    "lat": 19.148396,
    "lon": 72.99507,
    "nearest_node": 9685181431,
    "baseline_dist_m": 0,
    "flood_dist_m": 0,
    "detour_factor": 1.0,
    "status": "FULLY_ACCESSIBLE"
  },
  {
    "facility_id": "FAC_0058",
    "name": "Dr.Mahajan Hospital and Industrial Trauma Center",
    "type": "hospital",
    "lat": 19.145258,
    "lon": 73.00162,
    "nearest_node": 9685181431,
    "baseline_dist_m": 0,
    "flood_dist_m": 0,
    "detour_factor": 1.0,
    "status": "FULLY_ACCESSIBLE"
  },
  {
    "facility_id": "FAC_0059",
    "name": "Millennium Life Line Hospital and Research Centre",
    "type": "hospital",
    "lat": 19.059901,
    "lon": 73.014344,
    "nearest_node": 9685181431,
    "baseline_dist_m": 0,
    "flood_dist_m": 0,
    "detour_factor": 1.0,
    "status": "FULLY_ACCESSIBLE"
  },
  {
    "facility_id": "FAC_0060",
    "name": "NMMC MCH Airoli",
    "type": "hospital",
    "lat": 19.156543,
    "lon": 72.997212,
    "nearest_node": 9685181431,
    "baseline_dist_m": 0,
    "flood_dist_m": 0,
    "detour_factor": 1.0,
    "status": "FULLY_ACCESSIBLE"
  },
  {
    "facility_id": "FAC_0061",
    "name": "Mathadi Hospital KK",
    "type": "hospital",
    "lat": 19.104378,
    "lon": 73.003704,
    "nearest_node": 9685181431,
    "baseline_dist_m": 0,
    "flood_dist_m": 0,
    "detour_factor": 1.0,
    "status": "FULLY_ACCESSIBLE"
  },
  {
    "facility_id": "FAC_0062",
    "name": "Acharya Shri Nanesh Hospital",
    "type": "hospital",
    "lat": 19.033293,
    "lon": 73.041194,
    "nearest_node": 9685181431,
    "baseline_dist_m": 0,
    "flood_dist_m": 0,
    "detour_factor": 1.0,
    "status": "FULLY_ACCESSIBLE"
  },
  {
    "facility_id": "FAC_0063",
    "name": "Vinamra Swaraj Hospital",
    "type": "hospital",
    "lat": 19.087501,
    "lon": 73.003079,
    "nearest_node": 9685181431,
    "baseline_dist_m": 0,
    "flood_dist_m": 0,
    "detour_factor": 1.0,
    "status": "FULLY_ACCESSIBLE"
  },
  {
    "facility_id": "FAC_0064",
    "name": "NMMC Hospitals",
    "type": "hospital",
    "lat": 19.147508,
    "lon": 73.005262,
    "nearest_node": 9685181431,
    "baseline_dist_m": 0,
    "flood_dist_m": 0,
    "detour_factor": 1.0,
    "status": "FULLY_ACCESSIBLE"
  },
  {
    "facility_id": "FAC_0065",
    "name": "Vaishali Hospital",
    "type": "hospital",
    "lat": 19.146417,
    "lon": 72.987762,
    "nearest_node": 9685181431,
    "baseline_dist_m": 0,
    "flood_dist_m": 0,
    "detour_factor": 1.0,
    "status": "FULLY_ACCESSIBLE"
  },
  {
    "facility_id": "FAC_0066",
    "name": "apple hospital",
    "type": "hospital",
    "lat": 19.144444,
    "lon": 72.9951,
    "nearest_node": 9685181431,
    "baseline_dist_m": 0,
    "flood_dist_m": 0,
    "detour_factor": 1.0,
    "status": "FULLY_ACCESSIBLE"
  },
  {
    "facility_id": "FAC_0067",
    "name": "Dr Ninad Tamboli- Urologist at Terna Hospital, Terna Speciality Hospital and research center",
    "type": "hospital",
    "lat": 19.031529,
    "lon": 73.016339,
    "nearest_node": 9685181431,
    "baseline_dist_m": 0,
    "flood_dist_m": 0,
    "detour_factor": 1.0,
    "status": "FULLY_ACCESSIBLE"
  },
  {
    "facility_id": "FAC_0068",
    "name": "Cessna Lifeline Veterinary Hospital",
    "type": "hospital",
    "lat": 19.007246,
    "lon": 73.033845,
    "nearest_node": 9685181431,
    "baseline_dist_m": 0,
    "flood_dist_m": 0,
    "detour_factor": 1.0,
    "status": "FULLY_ACCESSIBLE"
  },
  {
    "facility_id": "FAC_0069",
    "name": "Sai Asha Hospital",
    "type": "hospital",
    "lat": 19.03756,
    "lon": 73.019045,
    "nearest_node": 9685181431,
    "baseline_dist_m": 0,
    "flood_dist_m": 0,
    "detour_factor": 1.0,
    "status": "FULLY_ACCESSIBLE"
  },
  {
    "facility_id": "FAC_0070",
    "name": "Dr D Y Patil Hospital and Research Center",
    "type": "hospital",
    "lat": 19.041123,
    "lon": 73.024717,
    "nearest_node": 9685181431,
    "baseline_dist_m": 0,
    "flood_dist_m": 0,
    "detour_factor": 1.0,
    "status": "FULLY_ACCESSIBLE"
  },
  {
    "facility_id": "FAC_0071",
    "name": "L H Fortis Hospital",
    "type": "hospital",
    "lat": 19.083041,
    "lon": 72.996043,
    "nearest_node": 9685181431,
    "baseline_dist_m": 0,
    "flood_dist_m": 0,
    "detour_factor": 1.0,
    "status": "FULLY_ACCESSIBLE"
  },
  {
    "facility_id": "FAC_0072",
    "name": "Seawoods Hospital",
    "type": "hospital",
    "lat": 19.01106,
    "lon": 73.015744,
    "nearest_node": 9685181431,
    "baseline_dist_m": 0,
    "flood_dist_m": 0,
    "detour_factor": 1.0,
    "status": "FULLY_ACCESSIBLE"
  },
  {
    "facility_id": "FAC_0073",
    "name": "Jaydish Nursing Home",
    "type": "hospital",
    "lat": 19.073175,
    "lon": 72.998367,
    "nearest_node": 9685181431,
    "baseline_dist_m": 0,
    "flood_dist_m": 0,
    "detour_factor": 1.0,
    "status": "FULLY_ACCESSIBLE"
  },
  {
    "facility_id": "FAC_0074",
    "name": "Dr Ajayan's Multispeciality Hospital",
    "type": "hospital",
    "lat": 19.100261,
    "lon": 73.009422,
    "nearest_node": 9685181431,
    "baseline_dist_m": 0,
    "flood_dist_m": 0,
    "detour_factor": 1.0,
    "status": "FULLY_ACCESSIBLE"
  },
  {
    "facility_id": "FAC_0075",
    "name": "Mahatma Gandhi Mission's New Bombay Hospital",
    "type": "hospital",
    "lat": 19.072642,
    "lon": 72.993869,
    "nearest_node": 9685181431,
    "baseline_dist_m": 0,
    "flood_dist_m": 0,
    "detour_factor": 1.0,
    "status": "FULLY_ACCESSIBLE"
  },
  {
    "facility_id": "FAC_0076",
    "name": "Savla Hospital",
    "type": "hospital",
    "lat": 19.016184,
    "lon": 73.017405,
    "nearest_node": 9685181431,
    "baseline_dist_m": 0,
    "flood_dist_m": 0,
    "detour_factor": 1.0,
    "status": "FULLY_ACCESSIBLE"
  },
  {
    "facility_id": "FAC_0077",
    "name": "Dr. D.Y. Patil Hospital",
    "type": "hospital",
    "lat": 19.041021,
    "lon": 73.024585,
    "nearest_node": 9685181431,
    "baseline_dist_m": 0,
    "flood_dist_m": 0,
    "detour_factor": 1.0,
    "status": "FULLY_ACCESSIBLE"
  },
  {
    "facility_id": "FAC_0078",
    "name": "Meenatai Thakre Hospital",
    "type": "hospital",
    "lat": 19.034145,
    "lon": 73.020757,
    "nearest_node": 9685181431,
    "baseline_dist_m": 0,
    "flood_dist_m": 0,
    "detour_factor": 1.0,
    "status": "FULLY_ACCESSIBLE"
  },
  {
    "facility_id": "FAC_0079",
    "name": "Apollo Hospitals - Navi Mumbai",
    "type": "hospital",
    "lat": 19.020535,
    "lon": 73.029127,
    "nearest_node": 9685181431,
    "baseline_dist_m": 0,
    "flood_dist_m": 0,
    "detour_factor": 1.0,
    "status": "FULLY_ACCESSIBLE"
  },
  {
    "facility_id": "FAC_0080",
    "name": "Mahatma Gandhi Missions Hospital",
    "type": "hospital",
    "lat": 19.02576,
    "lon": 73.041508,
    "nearest_node": 9685181431,
    "baseline_dist_m": 0,
    "flood_dist_m": 0,
    "detour_factor": 1.0,
    "status": "FULLY_ACCESSIBLE"
  },
  {
    "facility_id": "FAC_0081",
    "name": "ESIC Hospital",
    "type": "hospital",
    "lat": 19.074413,
    "lon": 72.989793,
    "nearest_node": 9685181431,
    "baseline_dist_m": 0,
    "flood_dist_m": 0,
    "detour_factor": 1.0,
    "status": "FULLY_ACCESSIBLE"
  },
  {
    "facility_id": "FAC_0082",
    "name": "NMMC Hospital",
    "type": "hospital",
    "lat": 19.011451,
    "lon": 73.016139,
    "nearest_node": 9685181431,
    "baseline_dist_m": 0,
    "flood_dist_m": 0,
    "detour_factor": 1.0,
    "status": "FULLY_ACCESSIBLE"
  },
  {
    "facility_id": "FAC_0083",
    "name": "Sunshine Hospital",
    "type": "hospital",
    "lat": 19.036311,
    "lon": 73.009721,
    "nearest_node": 9685181431,
    "baseline_dist_m": 0,
    "flood_dist_m": 0,
    "detour_factor": 1.0,
    "status": "FULLY_ACCESSIBLE"
  },
  {
    "facility_id": "FAC_0084",
    "name": "Ajmera Hospital",
    "type": "hospital",
    "lat": 19.030529,
    "lon": 73.040407,
    "nearest_node": 9685181431,
    "baseline_dist_m": 0,
    "flood_dist_m": 0,
    "detour_factor": 1.0,
    "status": "FULLY_ACCESSIBLE"
  },
  {
    "facility_id": "FAC_0085",
    "name": "Reliance Hospital",
    "type": "hospital",
    "lat": 19.104948,
    "lon": 73.012642,
    "nearest_node": 9685181431,
    "baseline_dist_m": 0,
    "flood_dist_m": 0,
    "detour_factor": 1.0,
    "status": "FULLY_ACCESSIBLE"
  },
  {
    "facility_id": "FAC_0086",
    "name": "Neurogen Hospital",
    "type": "hospital",
    "lat": 19.021456,
    "lon": 73.015085,
    "nearest_node": 9685181431,
    "baseline_dist_m": 0,
    "flood_dist_m": 0,
    "detour_factor": 1.0,
    "status": "FULLY_ACCESSIBLE"
  },
  {
    "facility_id": "FAC_0087",
    "name": "NMMC Hospital",
    "type": "hospital",
    "lat": 19.013746,
    "lon": 73.033069,
    "nearest_node": 9685181431,
    "baseline_dist_m": 0,
    "flood_dist_m": 0,
    "detour_factor": 1.0,
    "status": "FULLY_ACCESSIBLE"
  },
  {
    "facility_id": "FAC_0088",
    "name": "FAC_0088",
    "type": "hospital",
    "lat": 19.093167,
    "lon": 73.010561,
    "nearest_node": 9685181431,
    "baseline_dist_m": 0,
    "flood_dist_m": 0,
    "detour_factor": 1.0,
    "status": "FULLY_ACCESSIBLE"
  },
  {
    "facility_id": "FAC_0089",
    "name": "FAC_0089",
    "type": "hospital",
    "lat": 19.156575,
    "lon": 72.997509,
    "nearest_node": 9685181431,
    "baseline_dist_m": 0,
    "flood_dist_m": 0,
    "detour_factor": 1.0,
    "status": "FULLY_ACCESSIBLE"
  },
  {
    "facility_id": "FAC_0090",
    "name": "FAC_0090",
    "type": "hospital",
    "lat": 19.153413,
    "lon": 72.986225,
    "nearest_node": 9685181431,
    "baseline_dist_m": 0,
    "flood_dist_m": 0,
    "detour_factor": 1.0,
    "status": "FULLY_ACCESSIBLE"
  },
  {
    "facility_id": "FAC_0091",
    "name": "JUHUGAON NMMC",
    "type": "hospital",
    "lat": 19.087218,
    "lon": 73.000342,
    "nearest_node": 9685181431,
    "baseline_dist_m": 0,
    "flood_dist_m": 0,
    "detour_factor": 1.0,
    "status": "FULLY_ACCESSIBLE"
  },
  {
    "facility_id": "FAC_0092",
    "name": "Smt. Sushiladevi Deshmukh Vidyalaya",
    "type": "school",
    "lat": 19.153089,
    "lon": 72.997397,
    "nearest_node": 9685181431,
    "baseline_dist_m": 0,
    "flood_dist_m": 0,
    "detour_factor": 1.0,
    "status": "FULLY_ACCESSIBLE"
  },
  {
    "facility_id": "FAC_0093",
    "name": "Gaurav High School & Jr. College",
    "type": "school",
    "lat": 19.012252,
    "lon": 73.017655,
    "nearest_node": 9685181431,
    "baseline_dist_m": 0,
    "flood_dist_m": 0,
    "detour_factor": 1.0,
    "status": "FULLY_ACCESSIBLE"
  },
  {
    "facility_id": "FAC_0094",
    "name": "FAC_0094",
    "type": "school",
    "lat": 19.087687,
    "lon": 73.014181,
    "nearest_node": 9685181431,
    "baseline_dist_m": 0,
    "flood_dist_m": 0,
    "detour_factor": 1.0,
    "status": "FULLY_ACCESSIBLE"
  },
  {
    "facility_id": "FAC_0095",
    "name": "FAC_0095",
    "type": "school",
    "lat": 19.097866,
    "lon": 73.001716,
    "nearest_node": 9685181431,
    "baseline_dist_m": 0,
    "flood_dist_m": 0,
    "detour_factor": 1.0,
    "status": "FULLY_ACCESSIBLE"
  },
  {
    "facility_id": "FAC_0096",
    "name": "एल.बी.एस. विद्यालय",
    "type": "school",
    "lat": 19.172706,
    "lon": 73.007798,
    "nearest_node": 9685181431,
    "baseline_dist_m": 0,
    "flood_dist_m": 0,
    "detour_factor": 1.0,
    "status": "FULLY_ACCESSIBLE"
  },
  {
    "facility_id": "FAC_0097",
    "name": "Amity International School",
    "type": "school",
    "lat": 19.009402,
    "lon": 73.036602,
    "nearest_node": 9685181431,
    "baseline_dist_m": 0,
    "flood_dist_m": 0,
    "detour_factor": 1.0,
    "status": "FULLY_ACCESSIBLE"
  },
  {
    "facility_id": "FAC_0098",
    "name": "St. Lawrence High School",
    "type": "school",
    "lat": 19.075196,
    "lon": 73.002121,
    "nearest_node": 9685181431,
    "baseline_dist_m": 0,
    "flood_dist_m": 0,
    "detour_factor": 1.0,
    "status": "FULLY_ACCESSIBLE"
  },
  {
    "facility_id": "FAC_0099",
    "name": "Christ Academy School KK",
    "type": "school",
    "lat": 19.099314,
    "lon": 72.998141,
    "nearest_node": 9685181431,
    "baseline_dist_m": 0,
    "flood_dist_m": 0,
    "detour_factor": 1.0,
    "status": "FULLY_ACCESSIBLE"
  },
  {
    "facility_id": "FAC_0100",
    "name": "Lokmanya Tilak International School",
    "type": "school",
    "lat": 19.107198,
    "lon": 73.008385,
    "nearest_node": 9685181431,
    "baseline_dist_m": 0,
    "flood_dist_m": 0,
    "detour_factor": 1.0,
    "status": "FULLY_ACCESSIBLE"
  },
  {
    "facility_id": "FAC_0101",
    "name": "Seventh Day Adventist High School",
    "type": "school",
    "lat": 19.061928,
    "lon": 73.010297,
    "nearest_node": 9685181431,
    "baseline_dist_m": 0,
    "flood_dist_m": 0,
    "detour_factor": 1.0,
    "status": "FULLY_ACCESSIBLE"
  },
  {
    "facility_id": "FAC_0102",
    "name": "Mazidun High School",
    "type": "school",
    "lat": 19.14315,
    "lon": 72.994431,
    "nearest_node": 9685181431,
    "baseline_dist_m": 0,
    "flood_dist_m": 0,
    "detour_factor": 1.0,
    "status": "FULLY_ACCESSIBLE"
  },
  {
    "facility_id": "FAC_0103",
    "name": "NMMC School",
    "type": "school",
    "lat": 19.100224,
    "lon": 73.006605,
    "nearest_node": 9685181431,
    "baseline_dist_m": 0,
    "flood_dist_m": 0,
    "detour_factor": 1.0,
    "status": "FULLY_ACCESSIBLE"
  },
  {
    "facility_id": "FAC_0104",
    "name": "D.A.V Public School - Nerul",
    "type": "school",
    "lat": 19.012681,
    "lon": 73.015524,
    "nearest_node": 9685181431,
    "baseline_dist_m": 0,
    "flood_dist_m": 0,
    "detour_factor": 1.0,
    "status": "FULLY_ACCESSIBLE"
  },
  {
    "facility_id": "FAC_0105",
    "name": "Orchid's International School",
    "type": "school",
    "lat": 19.021586,
    "lon": 73.013993,
    "nearest_node": 9685181431,
    "baseline_dist_m": 0,
    "flood_dist_m": 0,
    "detour_factor": 1.0,
    "status": "FULLY_ACCESSIBLE"
  },
  {
    "facility_id": "FAC_0106",
    "name": "Don Bosco School - Nerul",
    "type": "school",
    "lat": 19.017272,
    "lon": 73.015085,
    "nearest_node": 9685181431,
    "baseline_dist_m": 0,
    "flood_dist_m": 0,
    "detour_factor": 1.0,
    "status": "FULLY_ACCESSIBLE"
  },
  {
    "facility_id": "FAC_0107",
    "name": "Delhi Public School - Nerul",
    "type": "school",
    "lat": 19.006139,
    "lon": 73.01835,
    "nearest_node": 9685181431,
    "baseline_dist_m": 0,
    "flood_dist_m": 0,
    "detour_factor": 1.0,
    "status": "FULLY_ACCESSIBLE"
  },
  {
    "facility_id": "FAC_0108",
    "name": "Podar International School",
    "type": "school",
    "lat": 19.013501,
    "lon": 73.010217,
    "nearest_node": 9685181431,
    "baseline_dist_m": 0,
    "flood_dist_m": 0,
    "detour_factor": 1.0,
    "status": "FULLY_ACCESSIBLE"
  },
  {
    "facility_id": "FAC_0109",
    "name": "Presentation Convent School",
    "type": "school",
    "lat": 19.01971,
    "lon": 73.023944,
    "nearest_node": 9685181431,
    "baseline_dist_m": 0,
    "flood_dist_m": 0,
    "detour_factor": 1.0,
    "status": "FULLY_ACCESSIBLE"
  },
  {
    "facility_id": "FAC_0110",
    "name": "Amity Internaltional School",
    "type": "school",
    "lat": 19.009432,
    "lon": 73.036606,
    "nearest_node": 9685181431,
    "baseline_dist_m": 0,
    "flood_dist_m": 0,
    "detour_factor": 1.0,
    "status": "FULLY_ACCESSIBLE"
  },
  {
    "facility_id": "FAC_0111",
    "name": "Terna High School, nerul",
    "type": "school",
    "lat": 19.038268,
    "lon": 73.014178,
    "nearest_node": 9685181431,
    "baseline_dist_m": 0,
    "flood_dist_m": 0,
    "detour_factor": 1.0,
    "status": "FULLY_ACCESSIBLE"
  },
  {
    "facility_id": "FAC_0112",
    "name": "Apeejay School - Nerul",
    "type": "school",
    "lat": 19.035326,
    "lon": 73.020733,
    "nearest_node": 9685181431,
    "baseline_dist_m": 0,
    "flood_dist_m": 0,
    "detour_factor": 1.0,
    "status": "FULLY_ACCESSIBLE"
  },
  {
    "facility_id": "FAC_0113",
    "name": "St. Xavier's High School & Jr. College",
    "type": "school",
    "lat": 19.042321,
    "lon": 73.020627,
    "nearest_node": 9685181431,
    "baseline_dist_m": 0,
    "flood_dist_m": 0,
    "detour_factor": 1.0,
    "status": "FULLY_ACCESSIBLE"
  },
  {
    "facility_id": "FAC_0114",
    "name": "St. Augustines High School",
    "type": "school",
    "lat": 19.03832,
    "lon": 73.020804,
    "nearest_node": 9685181431,
    "baseline_dist_m": 0,
    "flood_dist_m": 0,
    "detour_factor": 1.0,
    "status": "FULLY_ACCESSIBLE"
  },
  {
    "facility_id": "FAC_0115",
    "name": "Modern School",
    "type": "school",
    "lat": 19.072754,
    "lon": 72.985751,
    "nearest_node": 9685181431,
    "baseline_dist_m": 0,
    "flood_dist_m": 0,
    "detour_factor": 1.0,
    "status": "FULLY_ACCESSIBLE"
  },
  {
    "facility_id": "FAC_0116",
    "name": "Goldcrest High School",
    "type": "school",
    "lat": 19.08801,
    "lon": 73.006366,
    "nearest_node": 9685181431,
    "baseline_dist_m": 0,
    "flood_dist_m": 0,
    "detour_factor": 1.0,
    "status": "FULLY_ACCESSIBLE"
  },
  {
    "facility_id": "FAC_0117",
    "name": "Anchorwala Education Academy",
    "type": "school",
    "lat": 19.083722,
    "lon": 73.005396,
    "nearest_node": 9685181431,
    "baseline_dist_m": 0,
    "flood_dist_m": 0,
    "detour_factor": 1.0,
    "status": "FULLY_ACCESSIBLE"
  },
  {
    "facility_id": "FAC_0118",
    "name": "NMMC School",
    "type": "school",
    "lat": 19.079147,
    "lon": 73.002381,
    "nearest_node": 9685181431,
    "baseline_dist_m": 0,
    "flood_dist_m": 0,
    "detour_factor": 1.0,
    "status": "FULLY_ACCESSIBLE"
  },
  {
    "facility_id": "FAC_0119",
    "name": "ICL School",
    "type": "school",
    "lat": 19.078505,
    "lon": 73.001801,
    "nearest_node": 9685181431,
    "baseline_dist_m": 0,
    "flood_dist_m": 0,
    "detour_factor": 1.0,
    "status": "FULLY_ACCESSIBLE"
  },
  {
    "facility_id": "FAC_0120",
    "name": "Sacred Heart High School & Jr. College",
    "type": "school",
    "lat": 19.072838,
    "lon": 72.991275,
    "nearest_node": 9685181431,
    "baseline_dist_m": 0,
    "flood_dist_m": 0,
    "detour_factor": 1.0,
    "status": "FULLY_ACCESSIBLE"
  },
  {
    "facility_id": "FAC_0121",
    "name": "Anjuman E-Islam English School",
    "type": "school",
    "lat": 19.077888,
    "lon": 72.994396,
    "nearest_node": 9685181431,
    "baseline_dist_m": 0,
    "flood_dist_m": 0,
    "detour_factor": 1.0,
    "status": "FULLY_ACCESSIBLE"
  },
  {
    "facility_id": "FAC_0122",
    "name": "Ryan International School - Nerul",
    "type": "school",
    "lat": 19.030366,
    "lon": 73.028161,
    "nearest_node": 9685181431,
    "baseline_dist_m": 0,
    "flood_dist_m": 0,
    "detour_factor": 1.0,
    "status": "FULLY_ACCESSIBLE"
  },
  {
    "facility_id": "FAC_0123",
    "name": "Dnyandip Seva Mandal High School",
    "type": "school",
    "lat": 19.020378,
    "lon": 73.009928,
    "nearest_node": 9685181431,
    "baseline_dist_m": 0,
    "flood_dist_m": 0,
    "detour_factor": 1.0,
    "status": "FULLY_ACCESSIBLE"
  },
  {
    "facility_id": "FAC_0124",
    "name": "Vidyabhavan High School",
    "type": "school",
    "lat": 19.033704,
    "lon": 73.009645,
    "nearest_node": 9685181431,
    "baseline_dist_m": 0,
    "flood_dist_m": 0,
    "detour_factor": 1.0,
    "status": "FULLY_ACCESSIBLE"
  },
  {
    "facility_id": "FAC_0125",
    "name": "Delhi Public World School and NR Bhagat school",
    "type": "school",
    "lat": 19.03749,
    "lon": 73.013347,
    "nearest_node": 9685181431,
    "baseline_dist_m": 0,
    "flood_dist_m": 0,
    "detour_factor": 1.0,
    "status": "FULLY_ACCESSIBLE"
  },
  {
    "facility_id": "FAC_0126",
    "name": "NMMC School - Sarsole",
    "type": "school",
    "lat": 19.043004,
    "lon": 73.014262,
    "nearest_node": 9685181431,
    "baseline_dist_m": 0,
    "flood_dist_m": 0,
    "detour_factor": 1.0,
    "status": "FULLY_ACCESSIBLE"
  },
  {
    "facility_id": "FAC_0127",
    "name": "I.E.S High School - Navi Mumbai",
    "type": "school",
    "lat": 19.07124,
    "lon": 72.995468,
    "nearest_node": 9685181431,
    "baseline_dist_m": 0,
    "flood_dist_m": 0,
    "detour_factor": 1.0,
    "status": "FULLY_ACCESSIBLE"
  },
  {
    "facility_id": "FAC_0128",
    "name": "Anjuman-I-Islam High School",
    "type": "school",
    "lat": 19.072661,
    "lon": 73.013333,
    "nearest_node": 9685181431,
    "baseline_dist_m": 0,
    "flood_dist_m": 0,
    "detour_factor": 1.0,
    "status": "FULLY_ACCESSIBLE"
  },
  {
    "facility_id": "FAC_0129",
    "name": "ICL Monami High School",
    "type": "school",
    "lat": 19.072773,
    "lon": 73.01213,
    "nearest_node": 9685181431,
    "baseline_dist_m": 0,
    "flood_dist_m": 0,
    "detour_factor": 1.0,
    "status": "FULLY_ACCESSIBLE"
  },
  {
    "facility_id": "FAC_0130",
    "name": "FAC_0130",
    "type": "school",
    "lat": 19.065955,
    "lon": 73.005287,
    "nearest_node": 9685181431,
    "baseline_dist_m": 0,
    "flood_dist_m": 0,
    "detour_factor": 1.0,
    "status": "FULLY_ACCESSIBLE"
  },
  {
    "facility_id": "FAC_0131",
    "name": "Amrita Vidyalayam School & Jr. College",
    "type": "school",
    "lat": 19.048678,
    "lon": 73.016802,
    "nearest_node": 9685181431,
    "baseline_dist_m": 0,
    "flood_dist_m": 0,
    "detour_factor": 1.0,
    "status": "FULLY_ACCESSIBLE"
  },
  {
    "facility_id": "FAC_0132",
    "name": "NMMC School",
    "type": "school",
    "lat": 19.051411,
    "lon": 73.01652,
    "nearest_node": 9685181431,
    "baseline_dist_m": 0,
    "flood_dist_m": 0,
    "detour_factor": 1.0,
    "status": "FULLY_ACCESSIBLE"
  },
  {
    "facility_id": "FAC_0133",
    "name": "D.Y. Patil School & Jr. College",
    "type": "school",
    "lat": 19.025973,
    "lon": 73.044718,
    "nearest_node": 9685181431,
    "baseline_dist_m": 0,
    "flood_dist_m": 0,
    "detour_factor": 1.0,
    "status": "FULLY_ACCESSIBLE"
  },
  {
    "facility_id": "FAC_0134",
    "name": "Bharati Vidyapeeth Prashala School & Jr. College",
    "type": "school",
    "lat": 19.028393,
    "lon": 73.042279,
    "nearest_node": 9685181431,
    "baseline_dist_m": 0,
    "flood_dist_m": 0,
    "detour_factor": 1.0,
    "status": "FULLY_ACCESSIBLE"
  },
  {
    "facility_id": "FAC_0135",
    "name": "People's Education Society High School",
    "type": "school",
    "lat": 19.028788,
    "lon": 73.036414,
    "nearest_node": 9685181431,
    "baseline_dist_m": 0,
    "flood_dist_m": 0,
    "detour_factor": 1.0,
    "status": "FULLY_ACCESSIBLE"
  },
  {
    "facility_id": "FAC_0136",
    "name": "Marathi School",
    "type": "school",
    "lat": 19.035871,
    "lon": 73.011214,
    "nearest_node": 9685181431,
    "baseline_dist_m": 0,
    "flood_dist_m": 0,
    "detour_factor": 1.0,
    "status": "FULLY_ACCESSIBLE"
  },
  {
    "facility_id": "FAC_0137",
    "name": "Dr. SV Samant High School & Jr. College",
    "type": "school",
    "lat": 19.06847,
    "lon": 73.014214,
    "nearest_node": 9685181431,
    "baseline_dist_m": 0,
    "flood_dist_m": 0,
    "detour_factor": 1.0,
    "status": "FULLY_ACCESSIBLE"
  },
  {
    "facility_id": "FAC_0138",
    "name": "NMMC School",
    "type": "school",
    "lat": 19.068522,
    "lon": 73.013557,
    "nearest_node": 9685181431,
    "baseline_dist_m": 0,
    "flood_dist_m": 0,
    "detour_factor": 1.0,
    "status": "FULLY_ACCESSIBLE"
  },
  {
    "facility_id": "FAC_0139",
    "name": "Swami Vivekanand Sankul School",
    "type": "school",
    "lat": 19.063657,
    "lon": 73.012609,
    "nearest_node": 9685181431,
    "baseline_dist_m": 0,
    "flood_dist_m": 0,
    "detour_factor": 1.0,
    "status": "FULLY_ACCESSIBLE"
  },
  {
    "facility_id": "FAC_0140",
    "name": "Ryan International School - Sanpada",
    "type": "school",
    "lat": 19.058348,
    "lon": 73.015084,
    "nearest_node": 9685181431,
    "baseline_dist_m": 0,
    "flood_dist_m": 0,
    "detour_factor": 1.0,
    "status": "FULLY_ACCESSIBLE"
  },
  {
    "facility_id": "FAC_0141",
    "name": "NMMC School",
    "type": "school",
    "lat": 19.065223,
    "lon": 73.0154,
    "nearest_node": 9685181431,
    "baseline_dist_m": 0,
    "flood_dist_m": 0,
    "detour_factor": 1.0,
    "status": "FULLY_ACCESSIBLE"
  },
  {
    "facility_id": "FAC_0142",
    "name": "Jaipuriar School",
    "type": "school",
    "lat": 19.056454,
    "lon": 73.00532,
    "nearest_node": 9685181431,
    "baseline_dist_m": 0,
    "flood_dist_m": 0,
    "detour_factor": 1.0,
    "status": "FULLY_ACCESSIBLE"
  },
  {
    "facility_id": "FAC_0143",
    "name": "Sadhu Vaswani International School",
    "type": "school",
    "lat": 19.061584,
    "lon": 73.005228,
    "nearest_node": 9685181431,
    "baseline_dist_m": 0,
    "flood_dist_m": 0,
    "detour_factor": 1.0,
    "status": "FULLY_ACCESSIBLE"
  },
  {
    "facility_id": "FAC_0144",
    "name": "SBOA Public School",
    "type": "school",
    "lat": 19.039613,
    "lon": 73.025452,
    "nearest_node": 9685181431,
    "baseline_dist_m": 0,
    "flood_dist_m": 0,
    "detour_factor": 1.0,
    "status": "FULLY_ACCESSIBLE"
  },
  {
    "facility_id": "FAC_0145",
    "name": "North Point School",
    "type": "school",
    "lat": 19.104633,
    "lon": 73.005351,
    "nearest_node": 9685181431,
    "baseline_dist_m": 0,
    "flood_dist_m": 0,
    "detour_factor": 1.0,
    "status": "FULLY_ACCESSIBLE"
  },
  {
    "facility_id": "FAC_0146",
    "name": "Terna Orchids International Schoool",
    "type": "school",
    "lat": 19.110241,
    "lon": 73.005719,
    "nearest_node": 9685181431,
    "baseline_dist_m": 0,
    "flood_dist_m": 0,
    "detour_factor": 1.0,
    "status": "FULLY_ACCESSIBLE"
  },
  {
    "facility_id": "FAC_0147",
    "name": "NMMC School",
    "type": "school",
    "lat": 19.109661,
    "lon": 73.003613,
    "nearest_node": 9685181431,
    "baseline_dist_m": 0,
    "flood_dist_m": 0,
    "detour_factor": 1.0,
    "status": "FULLY_ACCESSIBLE"
  },
  {
    "facility_id": "FAC_0148",
    "name": "Reliance Foundation School KK",
    "type": "school",
    "lat": 19.097242,
    "lon": 73.002199,
    "nearest_node": 9685181431,
    "baseline_dist_m": 0,
    "flood_dist_m": 0,
    "detour_factor": 1.0,
    "status": "FULLY_ACCESSIBLE"
  },
  {
    "facility_id": "FAC_0149",
    "name": "R.F Naik School & Junior College",
    "type": "school",
    "lat": 19.100808,
    "lon": 73.00868,
    "nearest_node": 9685181431,
    "baseline_dist_m": 0,
    "flood_dist_m": 0,
    "detour_factor": 1.0,
    "status": "FULLY_ACCESSIBLE"
  },
  {
    "facility_id": "FAC_0150",
    "name": "St. Mary's ICSE School, KK",
    "type": "school",
    "lat": 19.09968,
    "lon": 73.007472,
    "nearest_node": 9685181431,
    "baseline_dist_m": 0,
    "flood_dist_m": 0,
    "detour_factor": 1.0,
    "status": "FULLY_ACCESSIBLE"
  },
  {
    "facility_id": "FAC_0151",
    "name": "NMMC School - Seawoods",
    "type": "school",
    "lat": 19.011331,
    "lon": 73.017361,
    "nearest_node": 9685181431,
    "baseline_dist_m": 0,
    "flood_dist_m": 0,
    "detour_factor": 1.0,
    "status": "FULLY_ACCESSIBLE"
  },
  {
    "facility_id": "FAC_0152",
    "name": "Radhika Bai Meghe Vidyalaya",
    "type": "school",
    "lat": 19.150233,
    "lon": 72.994151,
    "nearest_node": 9685181431,
    "baseline_dist_m": 0,
    "flood_dist_m": 0,
    "detour_factor": 1.0,
    "status": "FULLY_ACCESSIBLE"
  },
  {
    "facility_id": "FAC_0153",
    "name": "NMMC School",
    "type": "school",
    "lat": 19.008684,
    "lon": 73.040724,
    "nearest_node": 9685181431,
    "baseline_dist_m": 0,
    "flood_dist_m": 0,
    "detour_factor": 1.0,
    "status": "FULLY_ACCESSIBLE"
  },
  {
    "facility_id": "FAC_0154",
    "name": "NMMC School",
    "type": "school",
    "lat": 19.035135,
    "lon": 73.016394,
    "nearest_node": 9685181431,
    "baseline_dist_m": 0,
    "flood_dist_m": 0,
    "detour_factor": 1.0,
    "status": "FULLY_ACCESSIBLE"
  },
  {
    "facility_id": "FAC_0155",
    "name": "FAC_0155",
    "type": "school",
    "lat": 19.032293,
    "lon": 73.043891,
    "nearest_node": 9685181431,
    "baseline_dist_m": 0,
    "flood_dist_m": 0,
    "detour_factor": 1.0,
    "status": "FULLY_ACCESSIBLE"
  },
  {
    "facility_id": "FAC_0156",
    "name": "FAC_0156",
    "type": "school",
    "lat": 19.029911,
    "lon": 73.044985,
    "nearest_node": 9685181431,
    "baseline_dist_m": 0,
    "flood_dist_m": 0,
    "detour_factor": 1.0,
    "status": "FULLY_ACCESSIBLE"
  },
  {
    "facility_id": "FAC_0157",
    "name": "NMMC School - Vashi Gaon",
    "type": "school",
    "lat": 19.067383,
    "lon": 72.987806,
    "nearest_node": 9685181431,
    "baseline_dist_m": 0,
    "flood_dist_m": 0,
    "detour_factor": 1.0,
    "status": "FULLY_ACCESSIBLE"
  },
  {
    "facility_id": "FAC_0158",
    "name": "FAC_0158",
    "type": "school",
    "lat": 19.153309,
    "lon": 72.997397,
    "nearest_node": 9685181431,
    "baseline_dist_m": 0,
    "flood_dist_m": 0,
    "detour_factor": 1.0,
    "status": "FULLY_ACCESSIBLE"
  },
  {
    "facility_id": "FAC_0159",
    "name": "MES Vidya Mandir School & Junior College",
    "type": "school",
    "lat": 19.017972,
    "lon": 73.030623,
    "nearest_node": 9685181431,
    "baseline_dist_m": 0,
    "flood_dist_m": 0,
    "detour_factor": 1.0,
    "status": "FULLY_ACCESSIBLE"
  },
  {
    "facility_id": "FAC_0160",
    "name": "Vidya Utkarsh Mandal English Medium School",
    "type": "school",
    "lat": 19.013767,
    "lon": 73.034026,
    "nearest_node": 9685181431,
    "baseline_dist_m": 0,
    "flood_dist_m": 0,
    "detour_factor": 1.0,
    "status": "FULLY_ACCESSIBLE"
  },
  {
    "facility_id": "FAC_0161",
    "name": "FAC_0161",
    "type": "school",
    "lat": 19.159589,
    "lon": 72.993738,
    "nearest_node": 9685181431,
    "baseline_dist_m": 0,
    "flood_dist_m": 0,
    "detour_factor": 1.0,
    "status": "FULLY_ACCESSIBLE"
  },
  {
    "facility_id": "FAC_0162",
    "name": "ST. XAVIERS",
    "type": "school",
    "lat": 19.038075,
    "lon": 73.02072,
    "nearest_node": 9685181431,
    "baseline_dist_m": 0,
    "flood_dist_m": 0,
    "detour_factor": 1.0,
    "status": "FULLY_ACCESSIBLE"
  },
  {
    "facility_id": "FAC_0163",
    "name": "FAC_0163",
    "type": "school",
    "lat": 19.103741,
    "lon": 73.001031,
    "nearest_node": 9685181431,
    "baseline_dist_m": 0,
    "flood_dist_m": 0,
    "detour_factor": 1.0,
    "status": "FULLY_ACCESSIBLE"
  },
  {
    "facility_id": "FAC_0164",
    "name": "KK POLICE STATION",
    "type": "police",
    "lat": 19.099075,
    "lon": 73.005183,
    "nearest_node": 9685181431,
    "baseline_dist_m": 0,
    "flood_dist_m": 0,
    "detour_factor": 1.0,
    "status": "FULLY_ACCESSIBLE"
  },
  {
    "facility_id": "FAC_0165",
    "name": "Shil Mhape Police Chouki",
    "type": "police",
    "lat": 19.114723,
    "lon": 73.034321,
    "nearest_node": 9685181431,
    "baseline_dist_m": 0,
    "flood_dist_m": 0,
    "detour_factor": 1.0,
    "status": "FULLY_ACCESSIBLE"
  },
  {
    "facility_id": "FAC_0166",
    "name": "FAC_0166",
    "type": "police",
    "lat": 19.146302,
    "lon": 73.000928,
    "nearest_node": 9685181431,
    "baseline_dist_m": 0,
    "flood_dist_m": 0,
    "detour_factor": 1.0,
    "status": "FULLY_ACCESSIBLE"
  },
  {
    "facility_id": "FAC_0167",
    "name": "FAC_0167",
    "type": "police",
    "lat": 19.017343,
    "lon": 73.029911,
    "nearest_node": 9685181431,
    "baseline_dist_m": 0,
    "flood_dist_m": 0,
    "detour_factor": 1.0,
    "status": "FULLY_ACCESSIBLE"
  },
  {
    "facility_id": "FAC_0168",
    "name": "Nerul Police Station",
    "type": "police",
    "lat": 19.028653,
    "lon": 73.018857,
    "nearest_node": 9685181431,
    "baseline_dist_m": 0,
    "flood_dist_m": 0,
    "detour_factor": 1.0,
    "status": "FULLY_ACCESSIBLE"
  },
  {
    "facility_id": "FAC_0169",
    "name": "Gaimukh Chowk Police Station",
    "type": "police",
    "lat": 19.015069,
    "lon": 73.015938,
    "nearest_node": 9685181431,
    "baseline_dist_m": 0,
    "flood_dist_m": 0,
    "detour_factor": 1.0,
    "status": "FULLY_ACCESSIBLE"
  },
  {
    "facility_id": "FAC_0170",
    "name": "N.R.I Coastal Police Station",
    "type": "police",
    "lat": 19.008021,
    "lon": 73.028681,
    "nearest_node": 9685181431,
    "baseline_dist_m": 0,
    "flood_dist_m": 0,
    "detour_factor": 1.0,
    "status": "FULLY_ACCESSIBLE"
  },
  {
    "facility_id": "FAC_0171",
    "name": "Turbhe Police Station",
    "type": "police",
    "lat": 19.066621,
    "lon": 73.019662,
    "nearest_node": 9685181431,
    "baseline_dist_m": 0,
    "flood_dist_m": 0,
    "detour_factor": 1.0,
    "status": "FULLY_ACCESSIBLE"
  },
  {
    "facility_id": "FAC_0172",
    "name": "Rabale Traffic Police Station",
    "type": "police",
    "lat": 19.148503,
    "lon": 72.993154,
    "nearest_node": 9685181431,
    "baseline_dist_m": 0,
    "flood_dist_m": 0,
    "detour_factor": 1.0,
    "status": "FULLY_ACCESSIBLE"
  },
  {
    "facility_id": "FAC_0173",
    "name": "Rabale Police Station",
    "type": "police",
    "lat": 19.146287,
    "lon": 73.001117,
    "nearest_node": 9685181431,
    "baseline_dist_m": 0,
    "flood_dist_m": 0,
    "detour_factor": 1.0,
    "status": "FULLY_ACCESSIBLE"
  },
  {
    "facility_id": "FAC_0174",
    "name": "CBD Belapur Police Station",
    "type": "police",
    "lat": 19.025377,
    "lon": 73.041248,
    "nearest_node": 9685181431,
    "baseline_dist_m": 0,
    "flood_dist_m": 0,
    "detour_factor": 1.0,
    "status": "FULLY_ACCESSIBLE"
  },
  {
    "facility_id": "FAC_0175",
    "name": "Seawoods Traffic Police Station",
    "type": "police",
    "lat": 19.019432,
    "lon": 73.019855,
    "nearest_node": 9685181431,
    "baseline_dist_m": 0,
    "flood_dist_m": 0,
    "detour_factor": 1.0,
    "status": "FULLY_ACCESSIBLE"
  },
  {
    "facility_id": "FAC_0176",
    "name": "Vashi Fire Station",
    "type": "fire_station",
    "lat": 19.076405,
    "lon": 72.998471,
    "nearest_node": 9685181431,
    "baseline_dist_m": 0,
    "flood_dist_m": 0,
    "detour_factor": 1.0,
    "status": "FULLY_ACCESSIBLE"
  },
  {
    "facility_id": "FAC_0177",
    "name": "Nerul Fire Station",
    "type": "fire_station",
    "lat": 19.023682,
    "lon": 73.025438,
    "nearest_node": 9685181431,
    "baseline_dist_m": 0,
    "flood_dist_m": 0,
    "detour_factor": 1.0,
    "status": "FULLY_ACCESSIBLE"
  },
  {
    "facility_id": "FAC_0178",
    "name": "FAC_0178",
    "type": "fire_station",
    "lat": 19.024407,
    "lon": 73.040606,
    "nearest_node": 9685181431,
    "baseline_dist_m": 0,
    "flood_dist_m": 0,
    "detour_factor": 1.0,
    "status": "FULLY_ACCESSIBLE"
  },
  {
    "facility_id": "FAC_0179",
    "name": "Airoli Fire station",
    "type": "fire_station",
    "lat": 19.151299,
    "lon": 72.989525,
    "nearest_node": 9685181431,
    "baseline_dist_m": 0,
    "flood_dist_m": 0,
    "detour_factor": 1.0,
    "status": "FULLY_ACCESSIBLE"
  },
  {
    "facility_id": "FAC_0180",
    "name": "Koparkhairne Fire Station",
    "type": "fire_station",
    "lat": 19.111334,
    "lon": 73.00645,
    "nearest_node": 9685181431,
    "baseline_dist_m": 0,
    "flood_dist_m": 0,
    "detour_factor": 1.0,
    "status": "FULLY_ACCESSIBLE"
  }
]